[
  {
    "name": "Annae",
    "lat": 36.39435,
    "lon": 127.66031,
    "region": "North Chungcheong"
  },
  {
    "name": "Annam",
    "lat": 36.3568,
    "lon": 127.67282,
    "region": "North Chungcheong"
  },
  {
    "name": "Apae",
    "lat": 34.86689,
    "lon": 126.31279,
    "region": "South Jeolla"
  },
  {
    "name": "Baekjeon",
    "lat": 35.55344,
    "lon": 127.63557,
    "region": "North Jeolla"
  },
  {
    "name": "Baeksu",
    "lat": 35.28401,
    "lon": 126.42038,
    "region": "South Jeolla"
  },
  {
    "name": "Bangsan",
    "lat": 38.2088,
    "lon": 127.95028,
    "region": "Gangwon"
  },
  {
    "name": "Bannam",
    "lat": 34.90444,
    "lon": 126.65175,
    "region": "South Jeolla"
  },
  {
    "name": "Beobwon",
    "lat": 37.84902,
    "lon": 126.87533,
    "region": "Gyeonggi"
  },
  {
    "name": "Beonam",
    "lat": 35.53236,
    "lon": 127.54372,
    "region": "North Jeolla"
  },
  {
    "name": "Beopseong",
    "lat": 35.3627,
    "lon": 126.4462,
    "region": "South Jeolla"
  },
  {
    "name": "Biin",
    "lat": 36.14029,
    "lon": 126.603,
    "region": "South Chungcheong"
  },
  {
    "name": "Bonggang",
    "lat": 35.0117,
    "lon": 127.58128,
    "region": "North Jeolla"
  },
  {
    "name": "Bongnae",
    "lat": 34.89322,
    "lon": 127.13128,
    "region": "South Jeolla"
  },
  {
    "name": "Boseong",
    "lat": 34.77148,
    "lon": 127.07996,
    "region": "South Jeolla"
  },
  {
    "name": "Bulgap",
    "lat": 35.20946,
    "lon": 126.50768,
    "region": "South Jeolla"
  },
  {
    "name": "Bupyeong",
    "lat": 37.50533,
    "lon": 126.72202,
    "region": "Gyeonggi"
  },
  {
    "name": "Byeollyang",
    "lat": 34.87479,
    "lon": 127.45159,
    "region": "South Jeolla"
  },
  {
    "name": "Byeonggok",
    "lat": 35.53064,
    "lon": 127.68155,
    "region": "North Jeolla"
  },
  {
    "name": "Changpyeong",
    "lat": 35.23904,
    "lon": 127.01792,
    "region": "North Jeolla"
  },
  {
    "name": "Cheongha",
    "lat": 36.19797,
    "lon": 129.33911,
    "region": "North Gyeongsang"
  },
  {
    "name": "Cheongnam",
    "lat": 36.35339,
    "lon": 126.95233,
    "region": "South Chungcheong"
  },
  {
    "name": "Cheongpung",
    "lat": 34.87676,
    "lon": 126.97029,
    "region": "South Jeolla"
  },
  {
    "name": "Cheongpyeong",
    "lat": 37.7355,
    "lon": 127.4174,
    "region": "Gangwon"
  },
  {
    "name": "Cheongsan",
    "lat": 36.34655,
    "lon": 127.79366,
    "region": "North Chungcheong"
  },
  {
    "name": "Cheongseong",
    "lat": 36.3272,
    "lon": 127.75978,
    "region": "North Chungcheong"
  },
  {
    "name": "Cheongyang",
    "lat": 36.45156,
    "lon": 126.80365,
    "region": "South Chungcheong"
  },
  {
    "name": "Cheorwon",
    "lat": 38.20917,
    "lon": 127.2175,
    "region": "Gangwon"
  },
  {
    "name": "Chilbo",
    "lat": 35.60319,
    "lon": 126.99342,
    "region": "North Jeolla"
  },
  {
    "name": "Chungju",
    "lat": 36.97666,
    "lon": 127.9287,
    "region": "North Chungcheong"
  },
  {
    "name": "Chupungnyeong",
    "lat": 36.21712,
    "lon": 127.9919,
    "region": "North Gyeongsang"
  },
  {
    "name": "Daehap",
    "lat": 35.61365,
    "lon": 128.47165,
    "region": "South Gyeongsang"
  },
  {
    "name": "Daema",
    "lat": 35.30183,
    "lon": 126.57748,
    "region": "South Jeolla"
  },
  {
    "name": "Daesan",
    "lat": 35.34168,
    "lon": 126.60327,
    "region": "South Jeolla"
  },
  {
    "name": "Damyang",
    "lat": 35.31889,
    "lon": 126.98389,
    "region": "North Jeolla"
  },
  {
    "name": "Deokjin",
    "lat": 34.81951,
    "lon": 126.69688,
    "region": "South Jeolla"
  },
  {
    "name": "Dongbok",
    "lat": 35.07,
    "lon": 127.13028,
    "region": "South Jeolla"
  },
  {
    "name": "Donggye",
    "lat": 35.44168,
    "lon": 127.24264,
    "region": "North Jeolla"
  },
  {
    "name": "Donghae City",
    "lat": 37.54389,
    "lon": 129.10694,
    "region": "North Gyeongsang"
  },
  {
    "name": "Dongi",
    "lat": 36.2844,
    "lon": 127.6199,
    "region": "North Chungcheong"
  },
  {
    "name": "Dongmyeon",
    "lat": 35.03069,
    "lon": 127.03837,
    "region": "South Jeolla"
  },
  {
    "name": "Dongnae",
    "lat": 35.20159,
    "lon": 129.08477,
    "region": "South Gyeongsang"
  },
  {
    "name": "Dopo",
    "lat": 34.84601,
    "lon": 126.64367,
    "region": "South Jeolla"
  },
  {
    "name": "Gampo",
    "lat": 35.80538,
    "lon": 129.5011,
    "region": "South Gyeongsang"
  },
  {
    "name": "Gangdong",
    "lat": 37.72899,
    "lon": 128.95419,
    "region": "Gangwon"
  },
  {
    "name": "Ganghwa-gun",
    "lat": 37.74722,
    "lon": 126.48556,
    "region": "Gyeonggi"
  },
  {
    "name": "Gangjin",
    "lat": 35.53034,
    "lon": 127.16357,
    "region": "North Jeolla"
  },
  {
    "name": "Geumjeong",
    "lat": 34.86348,
    "lon": 126.74895,
    "region": "South Jeolla"
  },
  {
    "name": "Geumseong",
    "lat": 34.96449,
    "lon": 127.79025,
    "region": "South Gyeongsang"
  },
  {
    "name": "Gongeum",
    "lat": 35.37825,
    "lon": 126.51141,
    "region": "South Jeolla"
  },
  {
    "name": "Gujeong",
    "lat": 37.71904,
    "lon": 128.8799,
    "region": "Gangwon"
  },
  {
    "name": "Gumi",
    "lat": 36.1136,
    "lon": 128.336,
    "region": "North Gyeongsang"
  },
  {
    "name": "Gunbuk",
    "lat": 36.1678,
    "lon": 127.5274,
    "region": "North Chungcheong"
  },
  {
    "name": "Gunnam",
    "lat": 35.24032,
    "lon": 126.4528,
    "region": "South Jeolla"
  },
  {
    "name": "Gunpo",
    "lat": 37.3675,
    "lon": 126.94694,
    "region": "Gyeonggi"
  },
  {
    "name": "Gunseo",
    "lat": 35.25851,
    "lon": 126.47516,
    "region": "South Jeolla"
  },
  {
    "name": "Gurim",
    "lat": 35.4536,
    "lon": 127.10232,
    "region": "North Jeolla"
  },
  {
    "name": "Guryongpo",
    "lat": 35.98994,
    "lon": 129.55377,
    "region": "South Gyeongsang"
  },
  {
    "name": "Gwanchon",
    "lat": 35.67463,
    "lon": 127.27065,
    "region": "North Jeolla"
  },
  {
    "name": "Gwangjeok",
    "lat": 37.82566,
    "lon": 126.98349,
    "region": "Gyeonggi"
  },
  {
    "name": "Gwangmyeong",
    "lat": 37.47722,
    "lon": 126.86639,
    "region": "Gyeonggi"
  },
  {
    "name": "Gwangtan",
    "lat": 37.78055,
    "lon": 126.85004,
    "region": "Gyeonggi"
  },
  {
    "name": "Gwanin",
    "lat": 38.15921,
    "lon": 127.24935,
    "region": "Gangwon"
  },
  {
    "name": "Gyeombaek",
    "lat": 34.82987,
    "lon": 127.15181,
    "region": "South Jeolla"
  },
  {
    "name": "Gyodong",
    "lat": 37.78272,
    "lon": 126.28117,
    "region": "Gyeonggi"
  },
  {
    "name": "Gyuam",
    "lat": 36.27549,
    "lon": 126.88418,
    "region": "South Chungcheong"
  },
  {
    "name": "Hadong",
    "lat": 35.068,
    "lon": 127.75147,
    "region": "South Gyeongsang"
  },
  {
    "name": "Haean",
    "lat": 38.28634,
    "lon": 128.13774,
    "region": "Gangwon"
  },
  {
    "name": "Haebo",
    "lat": 35.18122,
    "lon": 126.60102,
    "region": "South Jeolla"
  },
  {
    "name": "Haeje",
    "lat": 35.11073,
    "lon": 126.29458,
    "region": "South Jeolla"
  },
  {
    "name": "Haeri",
    "lat": 35.46144,
    "lon": 126.53914,
    "region": "South Jeolla"
  },
  {
    "name": "Haeryong",
    "lat": 34.91406,
    "lon": 127.53764,
    "region": "North Jeolla"
  },
  {
    "name": "Hajeom",
    "lat": 37.77419,
    "lon": 126.41226,
    "region": "Gyeonggi"
  },
  {
    "name": "Haksan",
    "lat": 36.0976,
    "lon": 127.6844,
    "region": "North Chungcheong"
  },
  {
    "name": "Hamyeol",
    "lat": 36.07595,
    "lon": 126.96405,
    "region": "North Jeolla"
  },
  {
    "name": "Hancheolli",
    "lat": 34.97411,
    "lon": 127.00028,
    "region": "South Jeolla"
  },
  {
    "name": "Haseong",
    "lat": 37.71953,
    "lon": 126.63107,
    "region": "Gyeonggi"
  },
  {
    "name": "Hoenam",
    "lat": 36.44445,
    "lon": 127.58033,
    "region": "North Chungcheong"
  },
  {
    "name": "Hongnong",
    "lat": 35.39587,
    "lon": 126.44531,
    "region": "South Jeolla"
  },
  {
    "name": "Hwanam",
    "lat": 36.44874,
    "lon": 127.90601,
    "region": "North Chungcheong"
  },
  {
    "name": "Hwanggan",
    "lat": 36.2324,
    "lon": 127.9083,
    "region": "North Chungcheong"
  },
  {
    "name": "Hwayang",
    "lat": 34.70846,
    "lon": 127.6134,
    "region": "South Jeolla"
  },
  {
    "name": "Hyeonpung",
    "lat": 35.69557,
    "lon": 128.44608,
    "region": "South Gyeongsang"
  },
  {
    "name": "Ilgwang",
    "lat": 35.264,
    "lon": 129.23349,
    "region": "South Gyeongsang"
  },
  {
    "name": "Illo",
    "lat": 34.85258,
    "lon": 126.48952,
    "region": "South Jeolla"
  },
  {
    "name": "Imja",
    "lat": 35.08457,
    "lon": 126.11105,
    "region": "South Jeolla"
  },
  {
    "name": "Ingye",
    "lat": 35.41261,
    "lon": 127.14135,
    "region": "North Jeolla"
  },
  {
    "name": "Iwon",
    "lat": 36.24613,
    "lon": 127.61964,
    "region": "North Chungcheong"
  },
  {
    "name": "Iyang",
    "lat": 34.88953,
    "lon": 126.98778,
    "region": "South Jeolla"
  },
  {
    "name": "Jangan",
    "lat": 35.31296,
    "lon": 129.24244,
    "region": "South Gyeongsang"
  },
  {
    "name": "Jangheung",
    "lat": 34.68164,
    "lon": 126.90694,
    "region": "South Jeolla"
  },
  {
    "name": "Jangpyeong",
    "lat": 36.3414,
    "lon": 126.893,
    "region": "South Chungcheong"
  },
  {
    "name": "Jangseong",
    "lat": 35.29778,
    "lon": 126.78444,
    "region": "South Jeolla"
  },
  {
    "name": "Jeongnyang",
    "lat": 35.08337,
    "lon": 127.77696,
    "region": "South Gyeongsang"
  },
  {
    "name": "Jeongok",
    "lat": 38.02596,
    "lon": 127.07021,
    "region": "Gangwon"
  },
  {
    "name": "Jido",
    "lat": 35.06132,
    "lon": 126.20753,
    "region": "South Jeolla"
  },
  {
    "name": "Jinjam",
    "lat": 36.30029,
    "lon": 127.31719,
    "region": "North Chungcheong"
  },
  {
    "name": "Jinjeop",
    "lat": 37.72722,
    "lon": 127.18992,
    "region": "Gyeonggi"
  },
  {
    "name": "Jinsang",
    "lat": 35.02117,
    "lon": 127.71976,
    "region": "South Gyeongsang"
  },
  {
    "name": "Jinwol",
    "lat": 34.9791,
    "lon": 127.75807,
    "region": "South Gyeongsang"
  },
  {
    "name": "Joseong",
    "lat": 34.80915,
    "lon": 127.24754,
    "region": "South Jeolla"
  },
  {
    "name": "Juam",
    "lat": 35.07733,
    "lon": 127.23496,
    "region": "North Jeolla"
  },
  {
    "name": "Jumunjin",
    "lat": 37.89139,
    "lon": 128.82583,
    "region": "Gangwon"
  },
  {
    "name": "Mijo",
    "lat": 34.7128,
    "lon": 128.04605,
    "region": "South Gyeongsang"
  },
  {
    "name": "Miryeok",
    "lat": 34.80134,
    "lon": 127.08749,
    "region": "South Jeolla"
  },
  {
    "name": "Mundeok",
    "lat": 34.92966,
    "lon": 127.17236,
    "region": "South Jeolla"
  },
  {
    "name": "Myoryang",
    "lat": 35.25755,
    "lon": 126.54315,
    "region": "South Jeolla"
  },
  {
    "name": "Nagwol",
    "lat": 35.20248,
    "lon": 126.13757,
    "region": "South Jeolla"
  },
  {
    "name": "Nammyeon",
    "lat": 34.77247,
    "lon": 127.88668,
    "region": "South Gyeongsang"
  },
  {
    "name": "Nasan",
    "lat": 35.11447,
    "lon": 126.60908,
    "region": "South Jeolla"
  },
  {
    "name": "Nodong",
    "lat": 34.79802,
    "lon": 127.07073,
    "region": "South Jeolla"
  },
  {
    "name": "Ocheon",
    "lat": 35.97046,
    "lon": 129.41222,
    "region": "South Gyeongsang"
  },
  {
    "name": "Oeseo",
    "lat": 34.9142,
    "lon": 127.27727,
    "region": "South Jeolla"
  },
  {
    "name": "Okgok",
    "lat": 34.9903,
    "lon": 127.69875,
    "region": "North Jeolla"
  },
  {
    "name": "Onam",
    "lat": 37.69834,
    "lon": 127.20579,
    "region": "Gyeonggi"
  },
  {
    "name": "Ongnyong",
    "lat": 35.01766,
    "lon": 127.61925,
    "region": "North Jeolla"
  },
  {
    "name": "Paju",
    "lat": 37.83278,
    "lon": 126.81694,
    "region": "Gyeonggi"
  },
  {
    "name": "Palgeum",
    "lat": 34.78566,
    "lon": 126.14288,
    "region": "South Jeolla"
  },
  {
    "name": "Samseung",
    "lat": 36.397,
    "lon": 127.73201,
    "region": "North Chungcheong"
  },
  {
    "name": "Sangha",
    "lat": 35.44487,
    "lon": 126.49517,
    "region": "South Jeolla"
  },
  {
    "name": "Sangsa",
    "lat": 34.93944,
    "lon": 127.45523,
    "region": "North Jeolla"
  },
  {
    "name": "Sangwol",
    "lat": 36.2948,
    "lon": 127.1409,
    "region": "North Jeolla"
  },
  {
    "name": "Sannae",
    "lat": 35.56782,
    "lon": 127.03012,
    "region": "North Jeolla"
  },
  {
    "name": "Sanseo",
    "lat": 35.58362,
    "lon": 127.39679,
    "region": "North Jeolla"
  },
  {
    "name": "Seji",
    "lat": 34.92007,
    "lon": 126.7494,
    "region": "South Jeolla"
  },
  {
    "name": "Seolcheon",
    "lat": 36.009,
    "lon": 127.7901,
    "region": "North Chungcheong"
  },
  {
    "name": "Seongsu",
    "lat": 35.6309,
    "lon": 127.33344,
    "region": "North Jeolla"
  },
  {
    "name": "Seonwon",
    "lat": 37.71223,
    "lon": 126.48439,
    "region": "Gyeonggi"
  },
  {
    "name": "Seosang",
    "lat": 35.68185,
    "lon": 127.68774,
    "region": "North Jeolla"
  },
  {
    "name": "Seoseok",
    "lat": 37.7119,
    "lon": 128.18713,
    "region": "Gangwon"
  },
  {
    "name": "Seungju",
    "lat": 35.01532,
    "lon": 127.3897,
    "region": "North Jeolla"
  },
  {
    "name": "Sijong",
    "lat": 34.86886,
    "lon": 126.60706,
    "region": "South Jeolla"
  },
  {
    "name": "Simcheon",
    "lat": 36.23734,
    "lon": 127.72248,
    "region": "North Chungcheong"
  },
  {
    "name": "Simwon",
    "lat": 35.52448,
    "lon": 126.55107,
    "region": "North Jeolla"
  },
  {
    "name": "Sindong",
    "lat": 37.81735,
    "lon": 127.71656,
    "region": "Gangwon"
  },
  {
    "name": "Singwang",
    "lat": 36.12911,
    "lon": 129.2636,
    "region": "North Gyeongsang"
  },
  {
    "name": "Sinseo",
    "lat": 38.18561,
    "lon": 127.10819,
    "region": "Gangwon"
  },
  {
    "name": "Songgwang",
    "lat": 34.97504,
    "lon": 127.26377,
    "region": "South Jeolla"
  },
  {
    "name": "Songhae",
    "lat": 37.7636,
    "lon": 126.46577,
    "region": "Gyeonggi"
  },
  {
    "name": "Ssangchi",
    "lat": 35.50202,
    "lon": 127.00283,
    "region": "North Jeolla"
  },
  {
    "name": "Su-dong",
    "lat": 37.70353,
    "lon": 127.3258,
    "region": "Gangwon"
  },
  {
    "name": "Tanhyeon",
    "lat": 37.8024,
    "lon": 126.71598,
    "region": "Gyeonggi"
  },
  {
    "name": "Tongjin",
    "lat": 37.69191,
    "lon": 126.59855,
    "region": "Gyeonggi"
  },
  {
    "name": "Toseong",
    "lat": 38.25679,
    "lon": 128.55968,
    "region": "Gangwon"
  },
  {
    "name": "Wolgot",
    "lat": 37.71646,
    "lon": 126.55429,
    "region": "Gyeonggi"
  },
  {
    "name": "Yangsa",
    "lat": 37.79872,
    "lon": 126.408,
    "region": "Gyeonggi"
  },
  {
    "name": "Yecheon",
    "lat": 36.6574,
    "lon": 128.45514,
    "region": "North Gyeongsang"
  },
  {
    "name": "Yeoju",
    "lat": 37.29583,
    "lon": 127.63389,
    "region": "Gyeonggi"
  },
  {
    "name": "Yeomsan",
    "lat": 35.21831,
    "lon": 126.37194,
    "region": "South Jeolla"
  },
  {
    "name": "Yeoncheon",
    "lat": 38.10113,
    "lon": 127.07727,
    "region": "Gangwon"
  },
  {
    "name": "Yeongdeok",
    "lat": 36.41366,
    "lon": 129.37,
    "region": "North Gyeongsang"
  },
  {
    "name": "Yeongju",
    "lat": 36.82167,
    "lon": 128.63083,
    "region": "North Gyeongsang"
  },
  {
    "name": "Yongan",
    "lat": 36.11962,
    "lon": 126.95283,
    "region": "North Jeolla"
  },
  {
    "name": "Yonghwa",
    "lat": 36.0213,
    "lon": 127.7665,
    "region": "North Chungcheong"
  },
  {
    "name": "Yongsan",
    "lat": 36.2603,
    "lon": 127.8285,
    "region": "North Chungcheong"
  },
  {
    "name": "Yuchi",
    "lat": 34.80247,
    "lon": 126.83899,
    "region": "South Jeolla"
  },
  {
    "name": "Yureo",
    "lat": 34.87102,
    "lon": 127.18702,
    "region": "South Jeolla"
  },
  {
    "name": "Yuseong",
    "lat": 36.35389,
    "lon": 127.33667,
    "region": "North Chungcheong"
  }
]
